%time,field.x,field.y,field.z,real->,field.x,field.y
1376085759780950000,337,8,0,,-159.483840942,16
1376085759788510000,337,6,0,,-159.51399231,16
1376085759798800000,337,6,0,,-159.485488892,16
1376085759811820000,337,6,0,,-159.560745239,16
1376085759822300000,16,4,0,,-159.628173828,16
1376085759831520000,16,4,0,,-159.626907349,16
1376085759841830000,16,4,0,,-159.532058716,16
1376085759862540000,335,6,0,,-159.395767212,16
1376085759888190000,339,6,0,,-159.26625061,16
1376085759916160000,339,6,0,,-159.285888672,16
1376085759949430000,2,4,0,,-159.043395996,16
1376085759967120000,338,6,0,,-158.868545532,16
1376085759977080000,19,4,0,,-158.780639648,16
1376085759988230000,19,4,0,,-158.876586914,16
1376085760001340000,337,5,0,,-159.003952026,17
1376085760012220000,337,5,0,,-159.07635498,17
1376085760027920000,339,5,0,,-159.360519409,17
1376085760042690000,339,5,0,,-159.36315918,17
1376085760058400000,339,5,0,,-159.395584106,17
1376085760073670000,14,3,0,,-159.429336548,17
1376085760089320000,335,5,0,,-159.515945435,17
1376085760102930000,335,5,0,,-159.523147583,17
1376085760114640000,339,5,0,,-159.554870605,17
1376085760122200000,339,5,0,,-159.590438843,17
1376085760135010000,339,5,0,,-159.632492065,17
1376085760143690000,339,5,0,,-159.619155884,17
1376085760152280000,339,5,0,,-159.646530151,17
1376085760160720000,339,5,0,,-159.572189331,17
1376085760178200000,10,3,0,,-159.338912964,17
1376085760202990000,1,3,0,,-158.839263916,17
1376085760241330000,339,5,0,,-159.033111572,17
1376085760252160000,335,5,0,,-159.283706665,17
1376085760274850000,339,5,0,,-159.628799438,17
1376085760286160000,339,5,0,,-159.601898193,17
1376085760306870000,339,5,0,,-159.479537964,17
1376085760324800000,339,5,0,,-159.183013916,17
1376085760344280000,19,5,0,,-158.984298706,17
1376085760356600000,338,5,0,,-158.911727905,17
1376085760370300000,338,5,0,,-158.872772217,17
1376085760381180000,338,5,0,,-158.824432373,17
1376085760391180000,338,5,0,,-158.923904419,17
1376085760402290000,338,5,0,,-158.989700317,17
1376085760414960000,6,3,0,,-159.085800171,17
1376085760426870000,6,3,0,,-159.148651123,17
1376085760438390000,6,3,0,,-159.138442993,17
1376085760445330000,16,5,0,,-159.074890137,17
1376085760456230000,17,5,0,,-158.939056396,17
1376085760465420000,17,5,0,,-158.83291626,17
1376085760473080000,336,5,0,,-158.80267334,17
1376085760481330000,336,5,0,,-158.823165894,17
1376085760494710000,336,5,0,,-158.86706543,17
1376085760502580000,17,5,0,,-158.855056763,17
1376085760512700000,16,5,0,,-159.086380005,17
1376085760524630000,335,7,0,,-159.29914856,17
1376085760535250000,335,7,0,,-159.545898438,17
1376085760543790000,335,7,0,,-159.680297852,17
1376085760558460000,16,5,0,,-159.905929565,17
1376085760571480000,336,7,0,,-160.137451172,17
1376085760579910000,336,7,0,,-160.157989502,17
1376085760594270000,336,7,0,,-160.291366577,17
1376085760607740000,336,5,0,,-160.311813354,17
1376085760620180000,336,5,0,,-160.151168823,17
1376085760631430000,339,5,0,,-159.890136719,17
1376085760642030000,339,5,0,,-159.709381104,17
1376085760653210000,339,5,0,,-159.343612671,17
1376085760664280000,336,5,0,,-158.991531372,17
1376085760671190000,336,5,0,,-158.821716309,17
1376085760678730000,336,5,0,,-158.652511597,17
1376085760689240000,338,4,0,,-158.20526123,16
1376085760697390000,337,4,0,,-157.796569824,16
1376085760708140000,337,4,0,,-157.389633179,16
1376085760723300000,334,6,0,,-156.825515747,16
1376085760730010000,334,6,0,,-156.435623169,16
1376085760741190000,335,6,0,,-155.87336731,16
1376085760750540000,335,6,0,,-155.350738525,16
1376085760760790000,334,6,0,,-154.732284546,16
1376085760772770000,23,6,0,,-154.059707642,16
1376085760786470000,24,6,0,,-153.443405151,16
1376085760799450000,332,6,0,,-152.649536133,16
1376085760810410000,332,6,0,,-152.304595947,16
1376085760825330000,22,6,0,,-151.474700928,16
1376085760838690000,23,5,0,,-150.961074829,17
1376085760849280000,17,3,0,,-150.24180603,17
1376085760857190000,18,3,0,,-149.827362061,17
1376085760867440000,24,5,0,,-149.332366943,17
1376085760880320000,25,5,0,,-148.818252563,17
1376085760894770000,25,5,0,,-148.528167725,17
1376085760907050000,17,3,0,,-148.298202515,17
1376085760918470000,17,3,0,,-148.15737915,17
1376085760929720000,25,4,0,,-148.061447144,18
1376085760939920000,25,4,0,,-148.033615112,18
1376085760953160000,21,4,0,,-148.010803223,18
1376085760963170000,22,4,0,,-148.023498535,18
1376085760977950000,22,4,0,,-147.878311157,18
1376085760994520000,22,3,0,,-147.817672729,19
1376085761003590000,22,3,0,,-147.823272705,19
1376085761019140000,22,3,0,,-147.800628662,19
1376085761037440000,22,3,0,,-147.795043945,19
1376085761063930000,22,5,0,,-147.612014771,19
1376085761075620000,26,7,0,,-147.411849976,19
1376085761089820000,27,6,0,,-146.717407227,20
1376085761104450000,19,4,0,,-146.166625977,20
1376085761119420000,24,5,0,,-145.263534546,21
1376085761134620000,25,5,0,,-144.672271729,21
1376085761146750000,20,5,0,,-143.831558228,21
1376085761157110000,20,4,0,,-143.110641479,22
1376085761169890000,22,3,0,,-141.03465271,23
1376085761181240000,21,4,0,,-140.291824341,24
1376085761191070000,21,4,0,,-140.291824341,24
1376085761205040000,14,3,0,,-147.978622437,27
1376085761218680000,14,2,0,,-147.1537323,28
1376085761233330000,15,5,0,,-146.546630859,29
1376085761248610000,16,4,0,,-145.747879028,30
1376085761263260000,10,5,0,,-145.568756104,31
1376085761278580000,48,1,0,,-107.208679199,35
1376085761293090000,47,5,0,,-108.355987549,35
1376085761304290000,46,4,0,,-109.168174744,36
1376085761317670000,44,4,0,,-109.625907898,36
1376085761343410000,14,8,0,,-141.770278931,36
1376085761359520000,14,9,0,,-141.639755249,37
1376085761373440000,14,8,0,,-141.600784302,38
1376085761381490000,16,8,0,,-141.674346924,38
1376085761394550000,16,7,0,,-141.720916748,39
1376085761410830000,16,7,0,,-141.902954102,39
1376085761426760000,13,8,0,,-142.075531006,40
1376085761442060000,15,10,0,,-142.359329224,40
1376085761458270000,15,9,0,,-142.678100586,41
1376085761474040000,12,11,0,,-143.061798096,41
1376085761487740000,16,10,0,,-143.455169678,42
1376085761502880000,16,10,0,,-143.65687561,42
1376085761517820000,16,9,0,,-143.975631714,43
1376085761532560000,17,9,0,,-144.210479736,43
1376085761548800000,15,10,0,,-144.476242065,44
1376085761564470000,15,9,0,,-144.756286621,45
1376085761578820000,15,9,0,,-144.981658936,45
1376085761590380000,14,9,0,,-145.339447021,45
1376085761598310000,14,8,0,,-145.576889038,46
1376085761609980000,14,8,0,,-145.998779297,46
1376085761623040000,13,7,0,,-146.422515869,47
1376085761637000000,27,10,0,,-132.584976196,44
1376085761652640000,32,12,0,,-133.124526978,44
1376085761663370000,34,12,0,,-131.641311646,44
1376085761671940000,33,12,0,,-132.079315186,44
1376085761679270000,33,12,0,,-132.374404907,44
1376085761686190000,33,12,0,,-132.51222229,44
1376085761698700000,33,14,0,,-132.978759766,44
1376085761709400000,32,14,0,,-133.411575317,44
1376085761721280000,32,14,0,,-133.411575317,44
1376085761728770000,32,14,0,,-133.411575317,44
1376085761741990000,15,11,0,,-150.464416504,47
1376085761755710000,202,45,0,,-142.847885132,55
1376085761763920000,211,37,0,,-151.433685303,47
1376085761772330000,211,37,0,,-151.829086304,47
1376085761780000000,25,19,0,,-152.227584839,47
1376085761793570000,25,19,0,,-152.912536621,47
1376085761807640000,24,19,0,,-153.564117432,47
1376085761819560000,23,19,0,,-154.735641479,47
1376085761830010000,22,19,0,,-155.224182129,47
1376085761837730000,22,19,0,,-155.466812134,47
1376085761844880000,21,19,0,,-156.009216309,47
1376085761853630000,21,19,0,,-156.743362427,47
1376085761868680000,20,19,0,,-157.548095703,47
1376085761882330000,19,19,0,,-158.689300537,47
1376085761892990000,18,19,0,,-159.586807251,47
1376085761903890000,17,19,0,,-160.499252319,47
1376085761911320000,17,19,0,,-160.776535034,47
1376085761919420000,16,19,0,,-161.582626343,47
1376085761928070000,15,19,0,,-162.217453003,47
1376085761938500000,15,19,0,,-162.864181519,47
1376085761950210000,14,19,0,,-163.533416748,47
1376085761963550000,13,19,0,,-164.938873291,47
1376085761977970000,12,19,0,,-165.900283813,47
1376085761989320000,10,19,0,,-167.189422607,47
1376085762002080000,9,19,0,,-168.14100647,47
1376085762013400000,8,19,0,,-169.13999939,47
1376085762023000000,7,19,0,,-169.438217163,47
1376085762034920000,7,19,0,,-170.435745239,47
1376085762046950000,6,19,0,,-171.792541504,47
1376085762058120000,5,19,0,,-172.502090454,47
1376085762065340000,4,19,0,,-173.577316284,47
1376085762073880000,4,19,0,,-173.961959839,47
1376085762084950000,2,19,0,,-175.438522339,47
1376085762100050000,1,20,0,,-176.925613403,46
1376085762113200000,0,20,0,,-178.061447144,46
1376085762126540000,340,28,0,,-178.828613281,46
1376085762134560000,17,28,0,,179.975845337,46
1376085762145520000,17,29,0,,179.16947937,45
1376085762157110000,7,3,0,,177.815612793,45
1376085762166080000,6,3,0,,176.396514893,45
1376085762174820000,5,3,0,,175.399887085,45
1376085762188080000,9,12,0,,173.817214966,44
1376085762200800000,7,12,0,,171.791748047,44
1376085762214400000,4,9,0,,170.808959961,43
1376085762223370000,2,9,0,,168.785751343,43
1376085762237790000,10,9,0,,168.25201416,43
1376085762251680000,14,9,0,,172.810760498,43
1376085762264430000,13,9,0,,171.474334717,43
1376085762276650000,6,3,0,,170.498245239,43
1376085762287690000,4,3,0,,168.864837646,43
1376085762295830000,8,5,0,,168.108688354,43
1376085762310180000,6,5,0,,166.863250732,43
1376085762323570000,3,5,0,,165.814163208,43
1376085762334560000,3,5,0,,165.179946899,43
1376085762344920000,3,7,0,,163.673065186,43
1376085762355130000,2,7,0,,162.604507446,43
1376085762364020000,1,7,0,,161.895126343,43
1376085762374370000,9,3,0,,161.566589355,43
1376085762384070000,8,3,0,,160.471664429,43
1376085762394430000,7,3,0,,159.784423828,43
1376085762407170000,4,5,0,,158.842636108,43
1376085762415270000,3,5,0,,157.810653687,43
1376085762428790000,4,2,0,,156.706848145,42
1376085762442100000,3,2,0,,155.663894653,42
1376085762452820000,2,2,0,,154.829345703,42
1376085762466560000,7,4,0,,153.804534912,42
1376085762473630000,7,4,0,,153.024429321,42
1376085762481220000,4,4,0,,152.219467163,42
1376085762490410000,3,3,0,,151.624465942,41
1376085762500380000,2,3,0,,150.672073364,41
1376085762514560000,5,7,0,,149.727355957,41
1376085762525770000,4,7,0,,148.996139526,41
1376085762539070000,4,7,0,,148.46005249,41
1376085762549310000,11,2,0,,147.535003662,40
1376085762561800000,10,2,0,,146.803787231,40
1376085762569340000,8,8,0,,146.561157227,40
1376085762583870000,7,8,0,,145.377685547,40
1376085762595510000,12,8,0,,144.882019043,40
1376085762609400000,12,7,0,,144.092971802,39
1376085762622940000,11,7,0,,143.644271851,39
1376085762635440000,10,6,0,,142.796356201,38
1376085762642820000,10,6,0,,142.484649658,38
1376085762656260000,7,4,0,,141.940628052,38
1376085762663470000,7,4,0,,141.679992676,38
1376085762676560000,7,3,0,,141.304229736,37
1376085762689490000,8,7,0,,140.836135864,37
1376085762697850000,8,7,0,,140.818832397,37
1376085762705430000,8,6,0,,140.485656738,36
1376085762712790000,10,6,0,,140.331466675,36
1376085762721490000,10,6,0,,140.106307983,36
1376085762732200000,9,5,0,,139.940750122,35
1376085762742090000,7,7,0,,139.569641113,35
1376085762752040000,7,6,0,,139.361328125,34
1376085762765420000,9,6,0,,139.217712402,34
1376085762779990000,8,5,0,,138.653930664,33
1376085762794980000,10,5,0,,138.352218628,33
1376085762810510000,9,5,0,,137.978057861,33
1376085762825380000,5,4,0,,137.5650177,32
1376085762840230000,2,10,0,,136.99571228,32
1376085762852590000,2,9,0,,136.748764038,31
1376085762861340000,2,9,0,,136.345489502,31
1376085762870630000,6,9,0,,136.167266846,31
1376085762885160000,5,8,0,,135.409301758,30
1376085762899070000,4,8,0,,134.768325806,30
1376085762907750000,4,9,0,,134.131912231,29
1376085762920220000,3,9,0,,133.77897644,29
1376085762934890000,2,6,0,,132.970825195,28
1376085762944880000,2,6,0,,132.516265869,28
1376085762955790000,3,3,0,,131.658874512,27
1376085762966760000,3,3,0,,131.294281006,27
1376085762977450000,2,3,0,,130.501449585,27
1376085762987440000,0,4,0,,129.924758911,26
1376085762996750000,0,4,0,,129.572814941,26
1376085763005360000,1,3,0,,128.883972168,25
1376085763020260000,1,9,0,,128.212234497,25
1376085763032130000,2,8,0,,127.392364502,24
1376085763041220000,3,8,0,,126.862297058,24
1376085763055250000,12,7,0,,125.480819702,23
1376085763066420000,13,6,0,,124.724983215,22
1376085763075970000,12,11,0,,123.184593201,21
1376085763086200000,13,11,0,,122.307350159,21
1376085763094810000,14,11,0,,121.554824829,21
1376085763104450000,17,8,0,,120.706001282,20
1376085763114450000,18,8,0,,119.623596191,20
1376085763125800000,29,11,0,,118.642242432,19
1376085763140060000,30,10,0,,117.729286194,18
1376085763153230000,31,9,0,,116.404640198,17
1376085763164550000,18,7,0,,115.500030518,17
1376085763175810000,19,6,0,,114.749412537,16
1376085763187790000,30,8,0,,113.644088745,16
1376085763199870000,31,7,0,,112.057006836,15
1376085763211620000,32,7,0,,111.067138672,15
1376085763219740000,46,8,0,,109.827026367,14
1376085763233370000,47,8,0,,108.162666321,14
1376085763246900000,41,10,0,,106.981323242,14
1376085763260440000,43,9,0,,104.031784058,13
1376085763271520000,220,8,0,,102.325187683,12
1376085763284030000,218,8,0,,100.814750671,12
1376085763295350000,50,7,0,,99.5835494995,11
1376085763302740000,51,7,0,,98.3693313599,11
1376085763311230000,52,6,0,,97.2692718506,10
1376085763319620000,54,5,0,,95.1546936035,9
1376085763332610000,60,5,0,,93.0373458862,9
1376085763345130000,63,4,0,,90.4456558228,8
1376085763356880000,207,1,0,,87.5344848633,7
1376085763367090000,204,0,0,,84.898147583,6
1376085763378010000,204,0,0,,84.898147583,6
1376085763392000000,52,1,0,,-73.4007720947,3
1376085763400160000,50,0,0,,-75.8780899048,4
1376085763413820000,48,2,0,,-77.9156723022,4
1376085763427380000,46,1,0,,-79.6969833374,5
1376085763435360000,53,1,0,,-70.1230773926,9
1376085763448030000,51,1,0,,-72.0003967285,9
1376085763456450000,45,0,0,,-72.574508667,10
1376085763465110000,44,0,0,,-73.6818084717,10
1376085763473280000,60,16,0,,-57.2938079834,26
1376085763481080000,61,17,0,,-58.5573654175,27
1376085763493350000,60,17,0,,-59.4760551453,27
1376085763506070000,9,4,0,,-106.783035278,8
1376085763513910000,9,3,0,,-106.652519226,9
1376085763525360000,7,2,0,,-108.897041321,10
1376085763535840000,1,5,0,,-108.672317505,11
1376085763544360000,1,4,0,,-108.486534119,12
1376085763553970000,1,4,0,,-108.518783569,12
1376085763565790000,9,3,0,,-106.352455139,13
1376085763578440000,9,1,0,,-106.706176758,15
1376085763594290000,9,1,0,,-106.152900696,17
1376085763608460000,6,4,0,,-105.990905762,18
1376085763619660000,5,3,0,,-106.154548645,19
1376085763631540000,5,2,0,,-106.083938599,20
1376085763642520000,8,3,0,,-105.971092224,21
1376085763655610000,8,2,0,,-105.903549194,22
1376085763666400000,10,3,0,,-105.785797119,23
1376085763676460000,10,2,0,,-105.676574707,24
1376085763687360000,10,6,0,,-105.676574707,24
1376085763700260000,266,45,0,,150.723342896,75
1376085763710420000,266,45,0,,150.723342896,75
1376085763723110000,10,3,0,,-105.679496765,27
1376085763740860000,9,3,0,,-106.198822021,27
1376085763756690000,9,4,0,,-106.921226501,28
1376085763771540000,8,6,0,,-107.418563843,28
1376085763786610000,251,3,0,,135.863098145,37
1376085763799290000,256,2,0,,136.66242981,38
1376085763807090000,257,2,0,,137.386978149,38
1376085763817230000,257,3,0,,137.798965454,39
1376085763832550000,256,2,0,,138.565689087,40
1376085763847650000,257,3,0,,139.866897583,41
1376085763860090000,262,2,0,,140.614395142,42
1376085763868280000,262,2,0,,140.914749146,42
1376085763880850000,263,3,0,,141.839370728,43
1376085763894270000,266,2,0,,142.591339111,44
1376085763902140000,266,2,0,,142.815597534,44
1376085763915830000,267,3,0,,143.957778931,45
1376085763930500000,268,4,0,,144.575149536,46
1376085763943000000,269,2,0,,145.268661499,46
1376085763956310000,269,1,0,,145.909820557,47
1376085763967690000,272,3,0,,146.822784424,47
1376085763979950000,273,2,0,,147.515441895,48
1376085763990300000,273,0,0,,147.997390747,48
1376085763997930000,274,0,0,,148.422363281,48
1376085764007020000,275,1,0,,148.811065674,49
1376085764021510000,277,1,0,,149.506530762,49
1376085764034810000,278,1,0,,150.306808472,49
1376085764049820000,278,1,0,,150.306808472,49
1376085764057760000,278,1,0,,150.306808472,49
1376085764066950000,280,1,0,,150.306808472,49
1376085764076560000,280,1,0,,150.306808472,49
1376085764087470000,282,1,0,,150.306808472,49
1376085764099070000,282,1,0,,150.306808472,49
1376085764107040000,71,28,0,,-60.35206604,78
1376085764117830000,69,22,0,,-60.3052902222,78
1376085764132010000,69,22,0,,-60.2224884033,78
1376085764146030000,71,22,0,,-60.2224884033,78
1376085764159740000,46,3,0,,-87.2189941406,55
1376085764171070000,46,3,0,,-87.4781494141,55
1376085764180360000,46,3,0,,-87.5468063354,55
1376085764188820000,48,5,0,,-87.5468063354,55
1376085764197180000,48,5,0,,-87.5468063354,55
1376085764207400000,48,5,0,,-87.5468063354,55
1376085764219150000,48,5,0,,-87.5468063354,55
1376085764230010000,48,5,0,,-87.5468063354,55
1376085764242090000,48,5,0,,-87.5468063354,55
1376085764256790000,48,5,0,,-87.5468063354,55
1376085764271800000,48,5,0,,-87.5468063354,55
1376085764287230000,16,15,0,,-119.240592957,35
1376085764302300000,16,21,0,,-121.795188904,35
1376085764315820000,17,23,0,,-124.27973938,35
1376085764329760000,15,22,0,,-126.50831604,36
1376085764345030000,5,10,0,,-128.527023315,36
1376085764361210000,4,9,0,,-129.896316528,37
1376085764374830000,14,23,0,,-129.896316528,37
1376085764387590000,14,23,0,,-129.896316528,37
1376085764398780000,14,23,0,,-129.896316528,37
1376085764409330000,14,23,0,,-129.896316528,37
1376085764422040000,14,23,0,,-129.896316528,37
1376085764435790000,16,25,0,,-129.896316528,37
1376085764447790000,16,25,0,,-129.896316528,37
1376085764455100000,16,25,0,,-129.896316528,37
1376085764464410000,16,25,0,,-129.896316528,37
1376085764474530000,16,25,0,,-129.896316528,37
1376085764486620000,16,25,0,,-129.896316528,37
1376085764499420000,9,4,0,,-155.68409729,58
1376085764514180000,11,4,0,,-157.21723938,58
1376085764529720000,2,8,0,,-143.909683228,70
1376085764544460000,5,6,0,,-140.934432983,68
1376085764560900000,5,6,0,,-140.934432983,68
1376085764575840000,5,6,0,,-140.934432983,68
1376085764591070000,5,6,0,,-140.934432983,68
1376085764602340000,13,3,0,,-159.937683105,59
1376085764614290000,15,3,0,,-161.265640259,59
1376085764627330000,17,3,0,,-162.554595947,59
1376085764639300000,18,4,0,,-164.339019775,58
1376085764646980000,18,4,0,,-164.339019775,58
1376085764659680000,19,4,0,,-165.226013184,58
1376085764667850000,19,4,0,,-165.226013184,58
1376085764679930000,19,4,0,,-165.226013184,58
1376085764693790000,19,4,0,,-165.226013184,58
1376085764707630000,19,4,0,,-165.226013184,58
1376085764723490000,19,4,0,,-165.226013184,58
1376085764736040000,19,4,0,,-165.226013184,58
1376085764747280000,19,4,0,,-165.226013184,58
1376085764759300000,19,4,0,,-165.226013184,58
1376085764774520000,323,4,0,,-165.226013184,58
1376085764789210000,323,4,0,,-165.226013184,58
1376085764805560000,323,4,0,,-165.226013184,58
1376085764820610000,323,4,0,,-165.226013184,58
1376085764832650000,323,4,0,,-165.226013184,58
1376085764843840000,323,4,0,,-165.226013184,58
1376085764852620000,327,4,0,,-165.226013184,58
1376085764860640000,327,4,0,,-165.226013184,58
1376085764869970000,327,4,0,,-165.226013184,58
1376085764879650000,325,10,0,,-165.226013184,58
1376085764890220000,325,10,0,,-165.226013184,58
1376085764903960000,321,10,0,,-165.226013184,58
1376085764916430000,321,10,0,,-165.226013184,58
1376085764927790000,323,8,0,,-165.226013184,58
1376085764938280000,323,8,0,,-165.226013184,58
1376085764946590000,323,8,0,,-165.226013184,58
1376085764959270000,315,12,0,,-165.226013184,58
1376085764974770000,313,16,0,,-165.226013184,58
1376085764988540000,313,16,0,,-165.226013184,58
1376085764999970000,313,16,0,,-165.226013184,58
1376085765011730000,313,18,0,,-165.226013184,58
1376085765022570000,313,18,0,,-165.226013184,58
1376085765031080000,305,20,0,,-165.226013184,58
1376085765045630000,305,20,0,,-165.226013184,58
1376085765057890000,305,20,0,,-165.226013184,58
1376085765071490000,305,18,0,,-165.226013184,58
1376085765084540000,305,18,0,,-165.226013184,58
1376085765095940000,299,22,0,,-165.226013184,58
1376085765108810000,299,22,0,,-165.226013184,58
1376085765122140000,297,24,0,,-165.226013184,58
1376085765133210000,297,24,0,,-165.226013184,58
1376085765148380000,297,24,0,,-165.226013184,58
1376085765163230000,297,24,0,,-165.226013184,58
1376085765178370000,297,26,0,,-165.226013184,58
1376085765191480000,297,26,0,,-165.226013184,58
1376085765199480000,297,28,0,,-165.226013184,58
1376085765213670000,297,28,0,,-165.226013184,58
1376085765226250000,295,24,0,,-165.226013184,58
1376085765234510000,295,24,0,,-165.226013184,58
1376085765241630000,295,24,0,,-165.226013184,58
1376085765249980000,293,30,0,,-165.226013184,58
1376085765257510000,293,30,0,,-165.226013184,58
1376085765268470000,293,30,0,,-165.226013184,58
1376085765283090000,293,32,0,,-165.226013184,58
1376085765298230000,293,32,0,,-165.226013184,58
1376085765312000000,293,32,0,,-165.226013184,58
1376085765325510000,293,32,0,,-165.226013184,58
1376085765336040000,289,34,0,,-165.226013184,58
1376085765346310000,289,34,0,,-165.226013184,58
1376085765358240000,289,34,0,,-165.226013184,58
1376085765370370000,285,36,0,,-165.226013184,58
1376085765382340000,285,36,0,,-165.226013184,58
1376085765393330000,283,38,0,,-165.226013184,58
1376085765404150000,283,38,0,,-165.226013184,58
1376085765413600000,283,38,0,,-165.226013184,58
1376085765426930000,277,40,0,,-165.226013184,58
1376085765440680000,277,40,0,,-165.226013184,58
1376085765454030000,273,42,0,,-165.226013184,58
1376085765467010000,273,42,0,,-165.226013184,58
1376085765482180000,263,44,0,,-165.226013184,58
1376085765496960000,257,44,0,,-165.226013184,58
1376085765512700000,17,5,0,,74.0333328247,19
1376085765526270000,2,7,0,,72.1821670532,19
1376085765540320000,1,7,0,,68.4441833496,19
1376085765550540000,6,9,0,,66.6408157349,19
1376085765559310000,4,9,0,,64.8789901733,19
1376085765573010000,3,7,0,,61.2042007446,19
1376085765585730000,3,7,0,,61.2042007446,19
1376085765599120000,15,7,0,,61.2042007446,19
1376085765606850000,15,7,0,,61.2042007446,19
1376085765616500000,4,9,0,,52.2339668274,19
1376085765630690000,4,9,0,,52.2339668274,19
1376085765645020000,4,9,0,,52.2339668274,19
1376085765658270000,50,13,0,,-12.004032135,23
1376085765672070000,47,13,0,,-9.1677045822,23
1376085765679110000,15,11,0,,-7.5487356186,23
1376085765687610000,13,11,0,,-5.6761760712,23
1376085765701730000,13,11,0,,-5.6761760712,23
1376085765711070000,3,13,0,,-5.6761760712,23
1376085765720160000,3,13,0,,-5.6761760712,23
1376085765728600000,28,10,0,,-30.481595993,20
1376085765736420000,19,6,0,,-31.535150528,20
1376085765750350000,23,7,0,,-35.8711662292,21
1376085765765070000,21,7,0,,-39.7673606873,21
1376085765779770000,22,8,0,,-40.8725090027,22
1376085765792340000,16,4,0,,-40.8725090027,22
1376085765799960000,11,2,0,,-35.047504425,20
1376085765812730000,9,2,0,,-37.3280410767,20
1376085765828340000,10,3,0,,-38.4754142761,21
1376085765840600000,29,8,0,,-57.2195930481,26
1376085765854590000,24,8,0,,-58.140296936,26
1376085765867880000,18,4,0,,-58.140296936,26
1376085765881840000,14,3,0,,-54.4106559753,25
1376085765894490000,16,4,0,,-56.5446739197,26
1376085765903750000,8,3,0,,-58.8720016479,27
1376085765911870000,9,4,0,,-59.3993034363,28
1376085765923260000,11,5,0,,-61.2301254272,29
1376085765934690000,5,5,0,,-61.6410217285,29
1376085765949640000,7,6,0,,-63.3043670654,30
1376085765961380000,2,4,0,,-64.8842773438,30
1376085765971990000,3,5,0,,-65.7036209106,31
1376085765982440000,0,3,0,,-66.9642333984,31
1376085765994200000,2,3,0,,-68.3387451172,31
1376085766001720000,1,3,0,,-69.2723312378,31
1376085766014090000,2,4,0,,-70.79271698,32
1376085766025850000,3,4,0,,-71.7339935303,32
1376085766041340000,3,3,0,,-73.9040298462,33
1376085766054400000,177,4,0,,107.9451828,34
1376085766063110000,181,2,0,,107.9451828,34
1376085766075690000,181,2,0,,107.9451828,34
1376085766083960000,181,2,0,,107.9451828,34
1376085766093920000,62,19,0,,-11.5410776138,17
1376085766106270000,66,19,0,,-7.5526752472,17
1376085766114030000,69,18,0,,-4.9721927643,18
1376085766126550000,77,20,0,,-2.271743536,18
1376085766140090000,84,19,0,,4.0985722542,19
1376085766152190000,87,23,0,,7.8681330681,19
1376085766161720000,89,23,0,,9.1525878906,19
1376085766172710000,89,7,0,,-173.837219238,37
1376085766187630000,92,6,0,,-176.518005371,38
1376085766203310000,88,6,0,,-178.558349609,38
1376085766213830000,269,6,0,,179.822387695,38
1376085766228690000,271,8,0,,177.013305664,38
1376085766243590000,259,6,0,,174.986282349,38
1376085766257670000,262,8,0,,164.212463379,40
1376085766270140000,261,8,0,,163.323669434,40
1376085766283620000,265,8,0,,161.378585815,40
1376085766295180000,263,10,0,,159.93862915,38
1376085766305120000,262,10,0,,158.951385498,38
1376085766313390000,271,8,0,,157.875335693,38
1376085766322400000,270,8,0,,156.714126587,38
1376085766330660000,270,8,0,,156.1665802,38
1376085766340540000,270,8,0,,154.829406738,38
1376085766354360000,270,8,0,,154.829406738,38
1376085766367430000,273,34,0,,153.396942139,82
1376085766376620000,273,34,0,,153.209533691,82
1376085766385620000,272,34,0,,152.665206909,82
1376085766394700000,276,34,0,,152.494155884,82
1376085766405100000,275,34,0,,151.708190918,82
1376085766412600000,275,34,0,,151.315261841,82
1376085766424460000,274,28,0,,150.744293213,82
1376085766437630000,274,28,0,,150.171356201,82
1376085766450570000,273,28,0,,149.677566528,82
1376085766462430000,273,28,0,,149.192398071,82
1376085766474220000,271,23,0,,143.85987854,79
1376085766485560000,271,22,0,,143.306350708,78
1376085766498210000,261,16,0,,133.786743164,40
1376085766511850000,264,11,0,,132.763824463,39
1376085766522990000,248,13,0,,116.303855896,37
1376085766534670000,251,12,0,,115.309387207,36
1376085766543750000,251,12,0,,115.309387207,36
1376085766556820000,243,11,0,,105.591644287,31
1376085766568960000,242,12,0,,104.922767639,30
1376085766582100000,244,10,0,,104.922767639,30
1376085766596730000,244,10,0,,104.922767639,30
1376085766608640000,248,6,0,,104.922767639,30
1376085766617500000,202,8,0,,58.2263717651,28
1376085766631140000,203,10,0,,59.1649589539,27
1376085766641430000,209,7,0,,59.4162902832,25
1376085766653880000,210,8,0,,60.3400535583,24
1376085766666980000,210,5,0,,62.6683959961,23
1376085766678660000,211,6,0,,63.1035690308,22
1376085766688880000,212,7,0,,64.8933563232,21
1376085766698670000,218,3,0,,64.8933563232,21
1376085766713390000,222,6,0,,68.4979782104,18
1376085766727350000,203,5,0,,47.6764831543,15
1376085766739330000,214,6,0,,58.6552009583,14
1376085766752560000,222,6,0,,60.5327987671,12
1376085766763460000,224,7,0,,62.936882019,11
1376085766771220000,234,6,0,,64.9979934692,10
1376085766786350000,237,7,0,,67.4774246216,9
1376085766798040000,244,8,0,,74.4086227417,8
1376085766807080000,89,10,0,,79.2605667114,7
1376085766818750000,86,10,0,,85.804725647,6
1376085766834060000,58,10,0,,111.499198914,4
1376085766848190000,38,10,0,,131.665466309,4
1376085766863180000,1,5,0,,149.946014404,5
1376085766873890000,1,5,0,,149.946014404,5
1376085766887980000,5,9,0,,149.946014404,5
1376085766896870000,5,9,0,,149.946014404,5
1376085766907250000,5,9,0,,149.946014404,5
1376085766918760000,13,9,0,,149.946014404,5
1376085766932350000,13,9,0,,149.946014404,5
1376085766944340000,29,13,0,,149.946014404,5
1376085766953180000,29,13,0,,149.946014404,5
1376085766966370000,35,17,0,,149.946014404,5
1376085766980430000,35,17,0,,149.946014404,5
1376085766992290000,35,17,0,,149.946014404,5
1376085767003350000,47,19,0,,149.946014404,5
1376085767012690000,47,19,0,,149.946014404,5
1376085767024360000,47,19,0,,149.946014404,5
1376085767035380000,7,1,0,,107.899360657,31
1376085767048910000,4,2,0,,104.612892151,32
1376085767058010000,6,0,0,,102.945930481,32
1376085767067100000,4,1,0,,100.858551025,33
1376085767077290000,2,1,0,,98.1492462158,33
1376085767089430000,1,2,0,,95.4260406494,34
1376085767098760000,56,43,0,,94.4128265381,35
1376085767109540000,1,5,0,,93.3661651611,35
1376085767118570000,1,5,0,,93.3661651611,35
1376085767132290000,262,9,0,,-174.998382568,47
1376085767143800000,260,9,0,,-172.82585144,47
1376085767159440000,259,9,0,,-171.881561279,47
1376085767172140000,120,11,0,,-32.4322128296,53
1376085767180030000,120,11,0,,-32.9066314697,53
1376085767190300000,121,11,0,,-33.0661659241,53
1376085767202340000,139,1,0,,-51.1577682495,43
1376085767217450000,137,0,0,,-51.2793579102,44
1376085767230950000,137,1,0,,-51.4667816162,45
1376085767241860000,118,6,0,,-32.3813819885,38
1376085767249430000,117,7,0,,-31.9672966003,39
1376085767260150000,129,5,0,,-43.2354545593,51
1376085767269410000,129,6,0,,-43.1857147217,52
1376085767280370000,129,4,0,,-43.0018692017,52
1376085767292130000,253,5,0,,-167.523605347,43
1376085767304140000,251,4,0,,-167.805328369,44
1376085767315920000,252,4,0,,-168.001800537,44
1376085767326640000,252,5,0,,-168.112106323,43
1376085767340780000,254,7,0,,-168.454437256,43
1376085767352830000,254,8,0,,-168.603363037,42
1376085767364240000,252,8,0,,-168.942703247,42
1376085767375070000,253,8,0,,-169.002227783,42
1376085767382580000,255,7,0,,-169.189071655,41
1376085767393480000,126,3,0,,-40.953754425,51
1376085767407540000,133,2,0,,-49.2402839661,46
1376085767416480000,133,3,0,,-49.0796012878,45
1376085767426820000,132,3,0,,-48.9985351562,45
1376085767440760000,132,2,0,,-42.1979598999,46
1376085767455240000,140,4,0,,-50.901676178,40
1376085767469810000,140,0,0,,-50.7890739441,40
1376085767486220000,259,3,0,,-169.030838013,43
1376085767500740000,261,4,0,,-169.75227356,40
1376085767516130000,146,7,0,,-52.7885932922,27
1376085767530190000,151,8,0,,-57.252822876,26
1376085767538330000,153,9,0,,-59.335975647,25
1376085767547650000,157,4,0,,-63.0872802734,24
1376085767558720000,158,5,0,,-64.6274795532,23
1376085767569360000,166,6,0,,-72.1063690186,22
1376085767584420000,177,3,0,,-79.2357025146,21
1376085767599570000,152,2,0,,-44.465133667,16
1376085767610860000,151,3,0,,-43.6535491943,15
1376085767626180000,166,0,0,,-42.1730651855,12
1376085767641160000,163,3,0,,-39.9398345947,9
1376085767653210000,178,1,0,,-38.063419342,7
1376085767662040000,177,2,0,,-37.3883476257,6
1376085767674580000,172,4,0,,-32.3724021912,4
1376085767690890000,18,3,0,,170.864654541,7
1376085767705820000,15,4,0,,167.736907959,6
1376085767721070000,1,6,0,,159.741546631,4
1376085767734820000,7,7,0,,150.838241577,3
1376085767747650000,38,9,0,,135.798461914,3
1376085767759530000,82,12,0,,107.512535095,2
1376085767774810000,116,12,0,,63.21925354,2
1376085767786300000,131,5,0,,48.1524276733,9
1376085767797720000,196,4,0,,44.2469902039,10
1376085767810660000,192,3,0,,40.109500885,11
1376085767822080000,182,7,0,,40.109500885,11
1376085767831950000,189,1,0,,47.5694885254,17
1376085767844800000,188,3,0,,46.7930107117,17
1376085767855870000,188,3,0,,46.7930107117,17
1376085767867210000,188,3,0,,46.7930107117,17
1376085767878250000,179,2,0,,41.6432609558,22
1376085767891010000,179,2,0,,41.6432609558,22
1376085767898370000,179,2,0,,41.6432609558,22
1376085767907940000,171,1,0,,39.5431518555,27
1376085767921980000,171,0,0,,39.2377662659,28
1376085767937150000,171,1,0,,39.1870536804,29
1376085767951640000,171,7,0,,39.1870536804,29
1376085767964500000,165,1,0,,33.3483085632,35
1376085767977380000,160,2,0,,32.9920539856,36
1376085767989260000,160,1,0,,32.832233429,37
1376085768000190000,158,7,0,,32.832233429,37
1376085768010140000,158,7,0,,32.832233429,37
1376085768023340000,277,5,0,,153.892532349,45
1376085768038120000,277,5,0,,153.892532349,45
1376085768052680000,164,8,0,,38.3148880005,44
1376085768067690000,165,6,0,,39.1642036438,46
1376085768081710000,167,9,0,,39.5740852356,47
1376085768089720000,167,9,0,,39.6879920959,47
1376085768103670000,275,6,0,,147.625198364,50
1376085768113450000,273,12,0,,147.625198364,50
1376085768125080000,273,12,0,,147.625198364,50
1376085768134330000,273,12,0,,147.625198364,50
1376085768144830000,271,7,0,,145.04888916,55
1376085768155270000,279,10,0,,153.893310547,52
1376085768167630000,279,9,0,,153.577148438,53
1376085768179500000,279,8,0,,153.276916504,54
1376085768190100000,279,7,0,,153.106277466,55
1376085768201310000,263,6,0,,137.620132446,56
1376085768210890000,263,6,0,,137.483963013,56
1376085768223730000,282,7,0,,152.34967041,57
1376085768238080000,266,8,0,,136.847167969,56
1376085768253130000,266,8,0,,136.55569458,56
1376085768267970000,266,9,0,,136.202148438,55
1376085768283630000,265,11,0,,135.781158447,53
1376085768298520000,265,11,0,,135.449584961,53
1376085768311460000,266,11,0,,134.544387817,51
1376085768320290000,260,9,0,,128.134262085,53
1376085768334260000,262,8,0,,128.188980103,50
1376085768347620000,262,10,0,,128.248535156,48
1376085768358030000,262,8,0,,128.34236145,46
1376085768365850000,262,9,0,,128.838775635,45
1376085768378250000,264,11,0,,130.016921997,43
1376085768393000000,261,6,0,,127.285705566,42
1376085768403370000,261,6,0,,127.285705566,42
1376085768418490000,259,6,0,,125.897766113,38
1376085768431000000,265,7,0,,125.368041992,36
1376085768442510000,268,3,0,,132.066253662,37
1376085768454650000,270,4,0,,134.510604858,36
1376085768468310000,272,2,0,,134.510604858,36
1376085768477510000,41,10,0,,-96.065574646,24
1376085768490650000,43,12,0,,-94.6343994141,22
1376085768503630000,45,12,0,,-92.3277435303,20
1376085768514740000,181,5,0,,43.3129348755,27
1376085768524440000,189,9,0,,45.4786186218,33
1376085768535920000,60,10,0,,-83.0957794189,14
1376085768550070000,72,8,0,,-77.259437561,12
1376085768558230000,77,9,0,,-72.4504318237,11
1376085768567230000,86,10,0,,-63.281578064,10
1376085768576750000,105,5,0,,-56.0808258057,9
1376085768587540000,151,10,0,,-10.6283092499,4
1376085768600350000,160,7,0,,13.1494760513,5
1376085768611640000,146,6,0,,27.6162834167,6
1376085768621970000,140,5,0,,33.6848716736,7
1376085768637490000,119,4,0,,42.4699783325,8
1376085768652790000,103,2,0,,48.696018219,10
1376085768667960000,98,0,0,,53.8138923645,12
1376085768682910000,95,1,0,,56.9103317261,13
1376085768692540000,88,5,0,,59.7522087097,15
1376085768706400000,85,7,0,,62.1331329346,17
1376085768722490000,69,9,0,,64.8558502197,19
1376085768732490000,55,6,0,,66.6245803833,20
1376085768744420000,53,8,0,,68.104133606,22
1376085768752360000,53,9,0,,68.8767242432,23
1376085768761580000,35,9,0,,68.8767242432,23
1376085768772760000,35,9,0,,68.8767242432,23
1376085768786310000,121,8,0,,-29.390499115,22
1376085768801420000,96,5,0,,-4.7055139542,19
1376085768815300000,140,4,0,,-48.8227081299,26
1376085768828030000,141,6,0,,-49.2793426514,28
1376085768836480000,127,5,0,,-49.4499359131,29
1376085768846040000,127,6,0,,-49.5414047241,30
1376085768859260000,127,6,0,,-49.5414047241,30
1376085768868970000,10,1,0,,67.5881271362,27
1376085768878290000,8,0,0,,69.0782699585,28
1376085768886420000,7,1,0,,70.2112579346,29
1376085768895050000,20,7,0,,94.4522171021,39
1376085768908770000,20,10,0,,94.855140686,42
1376085768922650000,20,11,0,,94.8375396729,43
1376085768934030000,21,9,0,,95.0493545532,45
1376085768946510000,21,11,0,,95.3415298462,47
1376085768954750000,27,10,0,,95.4965591431,48
1376085768967520000,28,13,0,,96.8804244995,51
1376085768980910000,13,10,0,,79.2320022583,50
1376085768994590000,13,12,0,,79.229385376,52
1376085769009710000,13,9,0,,79.1829833984,53
1376085769025080000,13,8,0,,79.1845245361,54
1376085769041010000,13,9,0,,79.1737823486,55
1376085769053770000,13,11,0,,79.1419143677,55
1376085769062770000,13,11,0,,79.1419143677,55
1376085769074590000,13,11,0,,79.1419143677,55
1376085769089740000,17,9,0,,79.1419143677,55
1376085769106150000,15,7,0,,79.1419143677,55
1376085769121070000,15,7,0,,79.1419143677,55
1376085769136730000,13,5,0,,79.1419143677,55
1376085769152150000,13,5,0,,79.1419143677,55
1376085769164720000,11,7,0,,79.1419143677,55
1376085769175050000,11,7,0,,79.1419143677,55
1376085769183980000,13,7,0,,79.1419143677,55
1376085769198460000,13,7,0,,79.1419143677,55
1376085769212060000,13,5,0,,79.1419143677,55
1376085769222530000,13,5,0,,79.1419143677,55
1376085769233900000,13,5,0,,79.1419143677,55
1376085769246070000,13,11,0,,79.1419143677,55
1376085769259440000,131,13,0,,-65.8508529663,57
1376085769271930000,136,12,0,,-66.4208297729,56
1376085769285360000,136,11,0,,-66.355255127,55
1376085769300260000,136,15,0,,-66.355255127,55
1376085769315690000,140,19,0,,-66.355255127,55
1376085769330530000,1,6,0,,75.5656661987,42
1376085769343510000,0,10,0,,73.3098602295,46
1376085769355470000,10,4,0,,90.3381576538,38
1376085769368590000,15,4,0,,95.6328048706,38
1376085769383870000,22,8,0,,96.3691940308,36
1376085769399710000,4,16,0,,77.4282989502,42
1376085769414630000,27,2,0,,54.9346618652,24
1376085769428380000,32,0,0,,49.540763855,22
1376085769439340000,37,1,0,,44.7303733826,21
1376085769450330000,42,2,0,,39.7504615784,20
1376085769461770000,29,7,0,,34.1005706787,19
1376085769471580000,37,7,0,,26.316368103,19
1376085769480370000,45,10,0,,24.1057300568,18
1376085769492000000,52,10,0,,17.6560440063,18
1376085769506700000,59,10,0,,10.809009552,18
1376085769521760000,58,11,0,,3.857779026,17
1376085769535540000,148,13,0,,-1.7007627487,18
1376085769543990000,152,13,0,,-6.1170811653,17
1376085769552520000,155,14,0,,-9.3325710297,18
1376085769563240000,159,14,0,,-13.7812767029,18
1376085769574620000,159,14,0,,-13.7812767029,18
1376085769589520000,58,4,0,,-63.423034668,6
1376085769603840000,41,2,0,,-80.8486938477,4
1376085769615560000,290,1,0,,164.902557373,3
1376085769630320000,288,0,0,,162.353851318,4
1376085769643420000,285,3,0,,159.680709839,7
1376085769651510000,285,2,0,,159.109771729,8
1376085769662000000,284,0,0,,158.711364746,10
1376085769670860000,284,0,0,,158.711364746,10
1376085769683650000,275,3,0,,149.148742676,17
1376085769698320000,274,4,0,,148.978302002,18
1376085769713610000,272,2,0,,148.978302002,18
1376085769727360000,272,2,0,,148.978302002,18
1376085769739990000,265,3,0,,143.543716431,31
1376085769751960000,265,3,0,,143.543716431,31
1376085769764120000,265,3,0,,143.543716431,31
1376085769774640000,265,3,0,,143.543716431,31
1376085769781610000,265,3,0,,143.543716431,31
1376085769792970000,265,9,0,,143.543716431,31
1376085769806250000,260,3,0,,138.206069946,43
1376085769822220000,255,0,0,,135.805755615,46
1376085769836900000,263,1,0,,143.299087524,45
1376085769851670000,172,7,0,,50.6559524536,57
1376085769869060000,170,4,0,,50.5325660706,60
1376085769881000000,170,5,0,,50.4781837463,61
1376085769894650000,172,3,0,,50.2817420959,63
1376085769906170000,172,4,0,,50.1145019531,64
1376085769919260000,172,5,0,,50.0720024109,65
1376085769930250000,172,4,0,,50.3132858276,64
1376085769944650000,171,6,0,,49.8808517456,66
1376085769955950000,171,7,0,,49.5640487671,67
1376085769965870000,171,7,0,,49.4488487244,67
1376085769973250000,171,8,0,,49.2428779602,68
1376085769985890000,170,9,0,,48.9969329834,69
1376085770000570000,170,10,0,,48.7352485657,70
1376085770015000000,170,11,0,,48.4059791565,71
1376085770028030000,170,12,0,,48.0824432373,72
1376085770039980000,169,11,0,,47.9239692688,71
1376085770047030000,169,11,0,,47.6828689575,71
1376085770056760000,169,10,0,,47.503364563,70
1376085770067260000,169,10,0,,47.3224906921,70
1376085770081670000,168,8,0,,46.9776077271,68
1376085770096940000,168,6,0,,46.778175354,66
1376085770112930000,168,3,0,,46.575466156,63
1376085770127340000,168,2,0,,46.4118881226,62
1376085770142440000,167,0,0,,45.9588623047,60
1376085770156580000,167,2,0,,45.7780570984,58
1376085770163390000,167,2,0,,45.7588653564,58
1376085770171630000,167,3,0,,45.5706176758,57
1376085770180320000,167,3,0,,45.5597076416,57
1376085770191400000,167,4,0,,45.2982673645,56
1376085770203630000,167,4,0,,45.159160614,56
1376085770218530000,173,0,0,,45.0424041748,56
1376085770230310000,172,1,0,,44.7394714355,55
1376085770239600000,173,2,0,,43.7673301697,60
1376085770246410000,174,3,0,,44.3543891907,55
1376085770254510000,174,3,0,,44.1962165833,55
1376085770261440000,173,0,0,,43.0219955444,58
1376085770273230000,172,3,0,,42.5844459534,57
1376085770283860000,166,5,0,,36.6682739258,59
1376085770293450000,167,2,0,,37.0686607361,52
1376085770302300000,169,5,0,,37.3071632385,53
1376085770316070000,29,8,0,,-102.264907837,40
1376085770324770000,32,3,0,,-101.647270203,39
1376085770334110000,33,5,0,,-100.481086731,37
1376085770341450000,33,5,0,,-100.481086731,37
1376085770350490000,33,5,0,,-100.481086731,37
1376085770362300000,274,5,0,,138.336730957,31
1376085770372330000,272,7,0,,136.978225708,29
1376085770381840000,272,9,0,,136.086959839,27
1376085770391310000,274,3,0,,134.867919922,25
1376085770400320000,274,5,0,,134.049728394,23
1376085770409890000,275,2,0,,133.477218628,22
1376085770421060000,274,4,0,,132.532516479,20
1376085770434760000,272,2,0,,132.245727539,18
1376085770448060000,272,3,0,,132.498382568,17
1376085770458060000,273,5,0,,133.076263428,15
1376085770466010000,275,1,0,,133.672042847,15
1376085770474730000,276,2,0,,134.398117065,14
1376085770487880000,274,2,0,,136.161682129,12
1376085770503030000,274,2,0,,136.161682129,12
1376085770518610000,270,0,0,,136.161682129,12
1376085770532230000,262,6,0,,136.161682129,12
1376085770543060000,84,6,0,,-41.4838523865,12
1376085770555440000,93,37,0,,-32.8764762878,43
1376085770563400000,93,38,0,,-31.342256546,43
1376085770575530000,95,37,0,,-28.2534275055,41
1376085770591240000,106,11,0,,-17.6892623901,15
1376085770604350000,151,12,0,,-7.2765579224,14
1376085770617000000,52,9,0,,3.7884857655,13
1376085770627910000,44,8,0,,11.1266717911,12
1376085770640920000,35,8,0,,20.6414871216,12
1376085770654310000,21,4,0,,28.7819252014,12
1376085770668170000,6,0,0,,39.5590667725,12
1376085770678140000,69,10,0,,115.756317139,22
1376085770687770000,69,12,0,,115.859802246,24
1376085770698570000,63,8,0,,115.87020874,24
1376085770706930000,63,10,0,,115.9454422,26
1376085770718490000,63,11,0,,115.981895447,27
1376085770733200000,75,11,0,,115.839759827,29
1376085770746450000,73,9,0,,115.641860962,31
1376085770755560000,73,10,0,,115.368202209,32
1376085770769200000,43,8,0,,83.9735717773,18
1376085770780550000,32,14,0,,7.3143305779,40
1376085770790530000,0,4,0,,39.6440200806,22
1376085770804230000,65,11,0,,113.408302307,39
1376085770817470000,72,9,0,,112.976135254,41
1376085770832350000,72,10,0,,112.425643921,42
1376085770844400000,70,9,0,,112.092102051,43
1376085770858410000,69,10,0,,111.78767395,44
1376085770872410000,67,8,0,,111.307144165,44
1376085770886030000,66,9,0,,110.851570129,45
1376085770900630000,64,9,0,,110.503013611,45
1376085770914480000,64,8,0,,110.242408752,44
1376085770926360000,64,8,0,,110.070709229,44
1376085770937280000,63,10,0,,109.564369202,44
1376085770948670000,63,10,0,,109.312316895,44
1376085770961050000,60,10,0,,108.793960571,44
1376085770973770000,60,10,0,,108.471916199,44
1376085770985850000,62,9,0,,108.148376465,43
1376085770998690000,61,9,0,,107.942802429,43
1376085771009110000,61,10,0,,107.620391846,42
1376085771019110000,61,10,0,,107.488113403,42
1376085771034960000,61,8,0,,107.260116577,40
1376085771050580000,62,7,0,,108.174713135,39
1376085771062440000,59,5,0,,105.092102051,37
1376085771073920000,59,8,0,,107.629112244,36
1376085771087040000,59,6,0,,107.761543274,34
1376085771100150000,59,8,0,,107.933769226,32
1376085771110230000,59,8,0,,107.96786499,32
1376085771125230000,60,6,0,,108.000045776,30
1376085771139190000,56,8,0,,108.09928894,28
1376085771154810000,62,10,0,,108.09928894,28
1376085771167670000,3,3,0,,49.376750946,15
1376085771179340000,1,1,0,,46.4561691284,15
1376085771187680000,7,0,0,,40.5383491516,14
1376085771201440000,10,0,0,,37.7350311279,14
1376085771215800000,19,1,0,,26.2286224365,13
1376085771227540000,23,1,0,,22.2840309143,13
1376085771235390000,30,1,0,,15.3770694733,13
1376085771245220000,37,5,0,,10.1000909805,13
1376085771260450000,46,5,0,,1.7572796345,13
1376085771273900000,57,9,0,,-3.3037619591,13
1376085771288090000,40,13,0,,94.2635269165,17
1376085771296020000,40,14,0,,96.7406234741,16
1376085771305570000,41,13,0,,97.6611328125,15
1376085771319550000,88,7,0,,144.17098999,9
1376085771333310000,228,10,0,,106.351020813,12
1376085771345650000,239,4,0,,117.344406128,6
1376085771354800000,50,1,0,,-170.766159058,5
1376085771367240000,31,2,0,,-151.103805542,6
1376085771379090000,27,2,0,,-147.694992065,6
1376085771394420000,13,2,0,,-133.652389526,8
1376085771408360000,10,1,0,,-126.514671326,9
1376085771419570000,6,1,0,,-122.263870239,11
1376085771431970000,2,2,0,,-118.243659973,12
1376085771442460000,0,1,0,,-116.12046814,13
1376085771458650000,30,4,0,,-85.1839675903,16
1376085771473440000,12,0,0,,-107.856506348,16
1376085771488990000,14,1,0,,-105.193771362,17
1376085771504980000,20,2,0,,-101.421669006,18
1376085771520000000,23,3,0,,-98.8833618164,17
1376085771535510000,29,1,0,,-97.4505310059,17
1376085771550470000,32,2,0,,-93.0039672852,16
1376085771564380000,43,1,0,,-88.4826278687,15
1376085771579970000,50,2,0,,-83.2262496948,14
1376085771594650000,55,2,0,,-78.8945159912,14
1376085771609680000,67,0,0,,-74.943107605,14
1376085771623140000,72,0,0,,-69.979888916,14
1376085771635730000,104,11,0,,-43.3309555054,27
1376085771646350000,105,12,0,,-42.2214622498,28
1376085771657100000,107,12,0,,-40.1863174438,28
1376085771669770000,116,13,0,,-39.0258979797,29
1376085771677200000,100,1,0,,-55.8062438965,15
1376085771686960000,103,1,0,,-52.3542060852,15
1376085771697340000,107,4,0,,-62.7466125488,14
1376085771707990000,112,4,0,,-57.3874168396,14
1376085771714610000,112,4,0,,-57.3874168396,14
1376085771727850000,229,6,0,,-51.7350845337,14
1376085771740510000,222,5,0,,-46.1914520264,15
1376085771754800000,219,5,0,,-43.6619338989,15
1376085771768140000,208,8,0,,-38.5995445251,16
1376085771779270000,203,7,0,,-33.8986816406,17
1376085771790390000,202,7,0,,-32.830406189,17
1376085771801500000,195,8,0,,-29.7348365784,18
1376085771808820000,193,7,0,,-27.7912216187,19
1376085771817020000,192,6,0,,-26.0064067841,20
1376085771827760000,186,9,0,,-22.6719074249,21
1376085771839480000,185,8,0,,-21.1446037292,22
1376085771852010000,180,8,0,,-18.5664596558,24
1376085771864460000,179,7,0,,-17.2042827606,25
1376085771872590000,178,6,0,,-16.6863651276,26
1376085771885460000,175,6,0,,-15.512591362,28
1376085771897700000,175,4,0,,-15.0614433289,30
1376085771909810000,174,2,0,,-14.1734676361,32
1376085771916720000,173,13,0,,-13.9898757935,33
1376085771926070000,173,12,0,,-13.5258970261,34
1376085771937580000,172,10,0,,-12.6920013428,36
1376085771947680000,174,14,0,,-12.1308546066,38
1376085771956550000,173,12,0,,-11.7889471054,40
1376085771967500000,171,17,0,,-11.4774532318,41
1376085771982570000,171,15,0,,-11.141169548,43
1376085771998620000,170,16,0,,-10.7707672119,46
1376085772013610000,170,13,0,,-10.3832502365,49
1376085772028890000,167,23,0,,-9.9872407913,51
1376085772042850000,167,21,0,,-9.6856031418,53
1376085772054000000,167,20,0,,-9.4358634949,54
1376085772065770000,166,18,0,,-8.9370994568,56
1376085772078310000,166,17,0,,-8.7407207489,57
1376085772090620000,166,16,0,,-8.4567232132,58
1376085772101700000,164,11,0,,-6.9169478416,63
1376085772114950000,165,15,0,,-7.9691801071,59
1376085772126920000,165,14,0,,-7.8324213028,60
1376085772138940000,164,9,0,,-6.1663217545,65
1376085772150640000,163,9,0,,-5.9277672768,65
1376085772158600000,163,10,0,,-5.8306531906,64
1376085772172300000,163,10,0,,-5.4664754868,64
1376085772185940000,164,16,0,,-6.4909348488,58
1376085772197690000,164,17,0,,-6.3189682961,57
1376085772207420000,164,17,0,,-6.013507843,57
1376085772214920000,163,18,0,,-5.9105315208,56
1376085772225360000,163,19,0,,-5.5824775696,55
1376085772234330000,163,19,0,,-5.5371170044,55
1376085772242830000,161,16,0,,-5.3944425583,54
1376085772252350000,161,16,0,,-5.3299217224,54
1376085772265820000,161,17,0,,-5.3210711479,53
1376085772276120000,161,13,0,,-5.0766277313,53
1376085772286400000,161,14,0,,-5.4044113159,52
1376085772300310000,161,15,0,,-5.3768796921,51
1376085772309900000,161,16,0,,-5.3037142754,50
1376085772320380000,161,16,0,,-5.2060437203,50
1376085772331850000,162,11,0,,-4.9533185959,49
1376085772340040000,162,12,0,,-4.7288551331,48
1376085772347860000,162,13,0,,-4.4628381729,47
1376085772358360000,160,13,0,,-4.1402864456,47
1376085772373370000,159,15,0,,-3.4888319969,45
1376085772386890000,159,16,0,,-3.1569476128,44
1376085772400190000,160,15,0,,-2.7761936188,43
1376085772415540000,160,7,0,,-2.5655734539,41
1376085772428010000,160,8,0,,-2.2770035267,40
1376085772443480000,160,10,0,,-2.3724415302,38
1376085772458440000,160,11,0,,-2.3346362114,37
1376085772472800000,159,7,0,,-3.2865304947,35
1376085772486080000,158,8,0,,-2.0867760181,34
1376085772497700000,157,14,0,,-1.8730772734,32
1376085772507120000,151,15,0,,4.8708615303,31
1376085772516910000,157,16,0,,-1.776137352,30
1376085772525790000,153,13,0,,-1.6620085239,29
1376085772533600000,152,14,0,,-0.9957371354,28
1376085772542600000,153,15,0,,-1.5466028452,27
1376085772553360000,153,10,0,,-1.0071172714,26
1376085772566980000,153,11,0,,-1.8563047648,25
1376085772582540000,147,3,0,,6.3105831146,23
1376085772595660000,147,5,0,,6.2348265648,21
1376085772605310000,139,10,0,,6.2502017021,20
1376085772617630000,139,11,0,,6.4567008019,19
1376085772630260000,139,13,0,,6.7441530228,17
1376085772641040000,138,10,0,,7.5570135117,16
1376085772653710000,137,12,0,,8.3606796265,14
1376085772661840000,137,13,0,,8.946767807,13
1376085772672650000,136,14,0,,9.8062620163,12
1376085772686320000,137,11,0,,10.6869058609,11
1376085772702450000,136,13,0,,11.6301555634,9
1376085772718200000,138,9,0,,13.0714273453,7
1376085772733570000,136,11,0,,15.8668003082,5
1376085772748720000,142,7,0,,21.070476532,3
1376085772763410000,209,7,0,,-45.3884849548,3
1376085772778250000,81,7,0,,74.8661422729,1
1376085772790530000,264,6,0,,-108.575256348,2
1376085772806280000,3,1,0,,-135.223678589,3
1376085772820900000,300,0,0,,168.187591553,4
1376085772835510000,301,1,0,,171.134109497,5
1376085772844740000,302,1,0,,172.818099976,5
1376085772856520000,300,2,0,,174.051193237,6
1376085772866720000,300,3,0,,174.670196533,7
1376085772881650000,301,6,0,,175.787796021,8
1376085772897230000,291,5,0,,165.527389526,7
1376085772908240000,211,3,0,,167.654724121,7
1376085772915130000,212,4,0,,168.718185425,8
1376085772924610000,213,4,0,,169.339508057,8
1376085772938520000,215,3,0,,169.988937378,9
1376085772954310000,216,4,0,,170.538803101,10
1376085772968060000,216,5,0,,170.889434814,11
1376085772982920000,217,5,0,,171.357223511,11
1376085772993280000,217,2,0,,171.763259888,12
1376085773000810000,218,2,0,,172.157058716,12
1376085773013880000,218,3,0,,172.750610352,13
1376085773026230000,221,4,0,,173.304458618,14
1376085773040500000,222,4,0,,174.181015015,14
1376085773052700000,223,1,0,,175.085845947,15
1376085773064270000,223,1,0,,175.901580811,15
1376085773075120000,222,1,0,,176.376800537,15
1376085773087840000,222,1,0,,176.5415802,15
1376085773099790000,222,2,0,,176.207885742,16
1376085773111010000,221,2,0,,175.849533081,16
1376085773118050000,221,2,0,,175.630630493,16
1376085773133240000,219,3,0,,175.071105957,15
1376085773146410000,216,1,0,,174.737731934,15
1376085773157540000,216,1,0,,174.585220337,15
1376085773171500000,216,1,0,,174.360275269,15
1376085773183170000,216,1,0,,174.050979614,15
1376085773195040000,215,1,0,,173.745941162,15
1376085773208310000,213,1,0,,173.184371948,15
1376085773221300000,212,1,0,,172.826385498,15
1376085773229710000,214,3,0,,172.539016724,15
1376085773242980000,188,3,0,,146.323074341,15
1376085773255340000,188,3,0,,146.312133789,15
1376085773267670000,147,17,0,,107.950332642,27
1376085773278420000,147,17,0,,107.713378906,27
1376085773287280000,146,15,0,,104.314086914,27
1376085773302010000,144,8,0,,102.650169373,20
1376085773315170000,186,5,0,,146.512924194,15
1376085773326610000,105,16,0,,-145.235992432,26
1376085773339030000,186,4,0,,146.575332642,14
1376085773351440000,135,4,0,,-175.398757935,14
1376085773362440000,135,4,0,,-175.359451294,14
1376085773374710000,23,3,0,,-65.2508850098,7
1376085773386840000,15,16,0,,-24.851102829,26
1376085773398500000,137,3,0,,-177.320373535,13
1376085773407680000,135,3,0,,-175.402816772,13
1376085773417870000,135,5,0,,-175.561691284,13
1376085773432960000,183,5,0,,143.850479126,13
1376085773447380000,183,2,0,,143.857376099,12
1376085773456320000,183,2,0,,143.474975586,12
1376085773468250000,183,4,0,,143.516296387,12
1376085773474940000,210,4,0,,170.814147949,12
1376085773481390000,211,4,0,,171.104217529,12
1376085773489760000,213,3,0,,171.45274353,11
1376085773503670000,214,3,0,,172.141662598,11
1376085773511750000,214,3,0,,172.275421143,11
1376085773520800000,212,4,0,,172.141357422,10
1376085773535180000,211,4,0,,171.795822144,10
1376085773545680000,211,1,0,,171.205368042,9
1376085773557600000,210,1,0,,170.175918579,9
1376085773572770000,210,4,0,,168.312301636,8
1376085773588480000,208,3,0,,166.213897705,7
1376085773603040000,288,3,0,,164.93157959,7
1376085773614870000,287,2,0,,163.704437256,6
1376085773627490000,205,4,0,,163.446212769,6
1376085773638080000,219,6,0,,177.998565674,8
1376085773652130000,293,2,0,,165.199295044,4
1376085773663530000,49,5,0,,-177.773529053,7
1376085773676150000,47,4,0,,-175.497436523,6
1376085773687780000,45,2,0,,-173.373382568,6
1376085773699980000,258,1,0,,130.719482422,3
1376085773710940000,245,3,0,,115.714347839,7
1376085773718700000,245,3,0,,115.6615448,7
1376085773730990000,239,3,0,,113.461654663,7
1376085773741490000,237,3,0,,111.994049072,7
1376085773756230000,235,3,0,,109.677902222,7
1376085773771560000,236,1,0,,108.505691528,7
1376085773784320000,235,1,0,,107.055366516,7
1376085773798450000,232,5,0,,104.356010437,7
1376085773809470000,228,6,0,,100.742660522,8
1376085773821660000,220,7,0,,96.9814910889,9
1376085773832990000,219,7,0,,95.5096130371,9
1376085773842110000,219,7,0,,95.5096130371,9
1376085773855360000,219,7,0,,95.5096130371,9
1376085773867610000,219,7,0,,95.5096130371,9
1376085773879120000,217,7,0,,95.5096130371,9
1376085773888070000,217,7,0,,95.5096130371,9
1376085773902250000,102,7,0,,-44.9887123108,7
1376085773917650000,210,4,0,,-64.8858718872,6
1376085773933460000,206,3,0,,-60.6855163574,5
1376085773948520000,200,3,0,,-56.5714988708,5
1376085773957320000,198,3,0,,-54.0145988464,5
1376085773972600000,87,15,0,,58.2392425537,17
1376085773986840000,87,15,0,,58.8800125122,17
1376085773995210000,84,15,0,,59.2195396423,17
1376085774008840000,193,3,0,,-49.3228416443,5
1376085774024370000,194,2,0,,-50.263584137,4
1376085774036060000,195,2,0,,-51.0669784546,4
1376085774048950000,195,2,0,,-51.7391891479,4
1376085774059000000,193,2,0,,-51.5244178772,4
1376085774067680000,192,2,0,,-50.4426383972,4
1376085774082520000,191,0,0,,-47.5047073364,4
1376085774096220000,185,0,0,,-41.0556144714,4
1376085774107760000,173,0,0,,-33.2865638733,4
1376085774119630000,163,0,0,,-23.6128311157,4
1376085774130790000,156,2,0,,-16.8249378204,4
1376085774144090000,143,2,0,,-3.0942721367,4
1376085774159650000,138,5,0,,9.0801486969,5
1376085774170100000,133,5,0,,14.2652158737,5
1376085774184290000,131,5,0,,22.8598937988,7
1376085774196800000,125,5,0,,28.4000473022,7
1376085774213200000,115,7,0,,34.4762458801,9
1376085774226100000,115,8,0,,38.1109695435,10
1376085774238880000,113,8,0,,40.9035224915,10
1376085774246950000,111,7,0,,42.5913467407,11
1376085774259070000,106,8,0,,44.5772438049,12
1376085774272470000,105,7,0,,46.0918273926,13
1376085774286520000,109,8,0,,46.9443244934,14
1376085774298700000,108,7,0,,47.7372741699,15
1376085774310480000,107,8,0,,48.4087600708,16
1376085774322480000,107,7,0,,48.9613647461,17
1376085774334670000,106,5,0,,49.5989761353,19
1376085774346560000,105,6,0,,50.0624885559,20
1376085774356830000,105,5,0,,50.4277267456,21
1376085774372680000,106,7,0,,51.1860084534,23
1376085774384640000,106,6,0,,51.6970748901,24
1376085774394810000,106,5,0,,51.9561843872,25
1376085774401540000,105,8,0,,52.1771736145,26
1376085774414650000,105,7,0,,52.6715240479,27
1376085774423020000,104,6,0,,53.0846710205,28
1376085774433310000,106,12,0,,53.615486145,30
1376085774442970000,105,11,0,,54.0531921387,31
1376085774455910000,107,17,0,,54.3419189453,33
1376085774466950000,107,15,0,,54.5482521057,35
1376085774480290000,107,13,0,,54.7699050903,37
1376085774491300000,105,18,0,,54.7845726013,38
1376085774501670000,105,17,0,,54.7645454407,39
1376085774518600000,105,21,0,,54.6817092896,41
1376085774533470000,105,19,0,,54.5097312927,43
1376085774549530000,105,17,0,,54.1430740356,45
1376085774564960000,106,15,0,,53.8395576477,47
1376085774577370000,106,14,0,,53.5352172852,48
1376085774588090000,106,13,0,,53.227191925,49
1376085774599750000,107,11,0,,52.9452362061,51
1376085774610440000,107,11,0,,52.8542747498,51
1376085774618970000,107,10,0,,52.8365859985,51
1376085774626320000,107,10,0,,52.6924667358,52
1376085774634120000,107,10,0,,52.615196228,52
1376085774646740000,107,10,0,,52.5331306458,52
1376085774654770000,107,10,0,,52.4127540588,52
1376085774667660000,107,10,0,,52.3063812256,52
1376085774676140000,107,10,0,,52.2235794067,52
1376085774689250000,107,10,0,,52.2587242126,52
1376085774704320000,107,11,0,,52.2989654541,51
1376085774720070000,107,11,0,,52.3634338379,51
1376085774736220000,107,11,0,,52.5650749207,51
1376085774745830000,107,11,0,,52.7370376587,51
1376085774757350000,107,11,0,,52.875377655,51
1376085774765800000,106,11,0,,53.0855369568,51
1376085774776160000,106,11,0,,53.2125892639,51
1376085774789840000,106,12,0,,53.3911056519,50
1376085774803260000,106,12,0,,53.7519340515,50
1376085774815660000,105,12,0,,54.2820625305,50
1376085774828840000,105,13,0,,54.726650238,49
1376085774839420000,104,14,0,,55.0017929077,48
1376085774846220000,104,14,0,,55.1584091187,48
1376085774854100000,104,15,0,,55.4093742371,47
1376085774862310000,104,16,0,,55.6669692993,46
1376085774874410000,103,17,0,,56.1049461365,45
1376085774881810000,103,18,0,,56.185295105,44
1376085774893220000,103,19,0,,56.6593666077,43
1376085774906420000,104,20,0,,57.060585022,42
1376085774922120000,104,22,0,,57.4533615112,40
1376085774937720000,104,21,0,,57.699016571,39
1376085774952330000,104,23,0,,57.833694458,37
1376085774968420000,104,19,0,,57.9541854858,35
1376085774982270000,105,16,0,,58.0050201416,34
1376085774996570000,105,18,0,,58.0274772644,32
1376085775009270000,102,15,0,,57.9870452881,31
1376085775017790000,102,16,0,,57.9200401306,30
1376085775028940000,102,17,0,,57.735118866,29
1376085775042030000,102,12,0,,57.5917739868,28
1376085775049230000,102,13,0,,57.2793884277,27
1376085775065320000,101,11,0,,56.8048553467,25
1376085775079790000,101,12,0,,56.5416564941,24
1376085775094710000,101,8,0,,56.4856491089,22
1376085775108820000,101,10,0,,56.7849349976,20
1376085775121150000,103,8,0,,56.9883308411,18
1376085775136390000,101,10,0,,58.3412361145,16
1376085775151070000,102,8,0,,59.6789665222,14
1376085775159740000,100,10,0,,61.1589431763,12
1376085775170740000,100,11,0,,61.8118972778,11
1376085775185210000,95,9,0,,66.7292556763,9
1376085775197830000,92,11,0,,69.9115829468,7
1376085775210180000,81,10,0,,76.9252471924,6
1376085775223470000,57,12,0,,100.758392334,4
1376085775236350000,26,7,0,,127.263191223,3
1376085775248220000,2,7,0,,156.354660034,3
1376085775256930000,12,2,0,,164.875183105,4
1376085775266770000,329,1,0,,-177.132232666,5
1376085775276060000,320,0,0,,-168.995620728,6
1376085775286570000,26,3,0,,-160.959335327,7
1376085775297840000,27,1,0,,-161.508514404,5
1376085775311120000,28,3,0,,-156.817123413,7
1376085775321140000,23,5,0,,-151.328125,9
1376085775329760000,22,5,0,,-150.453643799,9
1376085775342200000,108,9,0,,-148.975219727,11
1376085775354070000,96,16,0,,-136.453567505,18
1376085775366260000,95,10,0,,-137.777923584,18
1376085775381720000,103,7,0,,-145.570770264,15
1376085775396490000,102,7,0,,-144.129333496,17
1376085775412890000,93,6,0,,-133.329284668,18
1376085775428500000,92,8,0,,-132.202926636,20
1376085775440840000,102,7,0,,-142.268386841,21
1376085775448930000,102,7,0,,-142.224121094,21
1376085775463040000,101,8,0,,-141.999053955,22
1376085775473890000,105,5,0,,-141.667861938,23
1376085775483110000,104,9,0,,-140.594467163,27
1376085775496590000,104,10,0,,-140.564682007,28
1376085775509590000,104,10,0,,-140.564682007,28
1376085775523510000,107,9,0,,-145.591339111,27
